{
  "@context": {
    "@vocab": "http://schema.org/",
    "@base": "http://www.semanticweb.org/transport",
    "Id": "@id",
    "Nom_Gare": "http://www.semanticweb.org/transport#NomGare",
    "INSEE_REG": "http://www.semanticweb.org/transport#IdRegion",
    "NOM_REG": "http://www.semanticweb.org/transport#NomRegion",
    "INSEE_DEP": "http://www.semanticweb.org/transport#IdDepartement",
    "NOM_DEP": "http://www.semanticweb.org/transport#NomDepartement",
    "Latitude": "http://www.semanticweb.org/transport#Latitude",
    "Longitude": "http://www.semanticweb.org/transport#Longitude"
  },
  "Features": [
    {
      "Id": 1,
      "Nom_Gare": "Aix-en-Provence TGV",
      "INSEE_REG": 84,
      "NOM_REG": "Auvergne-Rhône-Alpes",
      "INSEE_DEP": 1,
      "NOM_DEP": "Ain",
      "Latitude": 46.097,
      "Longitude": 4.847
    },
    {
      "Id": 2,
      "Nom_Gare": "Bellegarde",
      "INSEE_REG": 84,
      "NOM_REG": "Auvergne-Rhône-Alpes",
      "INSEE_DEP": 1,
      "NOM_DEP": "Ain",
      "Latitude": 46.114,
      "Longitude": 5.824
    },
    {
      "Id": 3,
      "Nom_Gare": "Bourg-en-Bresse",
      "INSEE_REG": 84,
      "NOM_REG": "Auvergne-Rhône-Alpes",
      "INSEE_DEP": 1,
      "NOM_DEP": "Ain",
      "Latitude": 46.196,
      "Longitude": 5.275
    },
    {
      "Id": 4,
      "Nom_Gare": "Cluses",
      "INSEE_REG": 84,
      "NOM_REG": "Auvergne-Rhône-Alpes",
      "INSEE_DEP": 1,
      "NOM_DEP": "Ain",
      "Latitude": 46.171,
      "Longitude": 5.577
    },
    {
      "Id": 5,
      "Nom_Gare": "Nurieux",
      "INSEE_REG": 84,
      "NOM_REG": "Auvergne-Rhône-Alpes",
      "INSEE_DEP": 1,
      "NOM_DEP": "Ain",
      "Latitude": 46.181,
      "Longitude": 5.521
    },
    {
      "Id": 6,
      "Nom_Gare": "Antibes",
      "INSEE_REG": 93,
      "NOM_REG": "Provence-Alpes-Côte d'Azur",
      "INSEE_DEP": 6,
      "NOM_DEP": "Alpes-Maritimes",
      "Latitude": 43.584,
      "Longitude": 7.108
    },
    {
      "Id": 7,
      "Nom_Gare": "Cannes",
      "INSEE_REG": 93,
      "NOM_REG": "Provence-Alpes-Côte d'Azur",
      "INSEE_DEP": 6,
      "NOM_DEP": "Alpes-Maritimes",
      "Latitude": 43.653,
      "Longitude": 7.146
    },
    {
      "Id": 8,
      "Nom_Gare": "Menton",
      "INSEE_REG": 93,
      "NOM_REG": "Provence-Alpes-Côte d'Azur",
      "INSEE_DEP": 6,
      "NOM_DEP": "Alpes-Maritimes",
      "Latitude": 43.774,
      "Longitude": 7.489
    },
    {
      "Id": 9,
      "Nom_Gare": "Nice-Ville",
      "INSEE_REG": 93,
      "NOM_REG": "Provence-Alpes-Côte d'Azur",
      "INSEE_DEP": 6,
      "NOM_DEP": "Alpes-Maritimes",
      "Latitude": 43.697,
      "Longitude": 7.272
    },
    {
      "Id": 10,
      "Nom_Gare": "Charleville-Mézières",
      "INSEE_REG": 44,
      "NOM_REG": "Grand Est",
      "INSEE_DEP": 8,
      "NOM_DEP": "Ardennes",
      "Latitude": 49.771,
      "Longitude": 4.72
    },
    {
      "Id": 11,
      "Nom_Gare": "Rethel",
      "INSEE_REG": 44,
      "NOM_REG": "Grand Est",
      "INSEE_DEP": 8,
      "NOM_DEP": "Ardennes",
      "Latitude": 49.5,
      "Longitude": 4.402
    },
    {
      "Id": 12,
      "Nom_Gare": "Sedan",
      "INSEE_REG": 44,
      "NOM_REG": "Grand Est",
      "INSEE_DEP": 8,
      "NOM_DEP": "Ardennes",
      "Latitude": 49.705,
      "Longitude": 4.943
    },
    {
      "Id": 13,
      "Nom_Gare": "Dijon-Ville",
      "INSEE_REG": 44,
      "NOM_REG": "Grand Est",
      "INSEE_DEP": 10,
      "NOM_DEP": "Aube",
      "Latitude": 48.119,
      "Longitude": 4.789
    },
    {
      "Id": 14,
      "Nom_Gare": "Carcassonne",
      "INSEE_REG": 76,
      "NOM_REG": "Occitanie",
      "INSEE_DEP": 11,
      "NOM_DEP": "Aude",
      "Latitude": 43.179,
      "Longitude": 2.405
    },
    {
      "Id": 15,
      "Nom_Gare": "Narbonne",
      "INSEE_REG": 76,
      "NOM_REG": "Occitanie",
      "INSEE_DEP": 11,
      "NOM_DEP": "Aude",
      "Latitude": 43.182,
      "Longitude": 3.026
    },
    {
      "Id": 16,
      "Nom_Gare": "Arles",
      "INSEE_REG": 93,
      "NOM_REG": "Provence-Alpes-Côte d'Azur",
      "INSEE_DEP": 13,
      "NOM_DEP": "Bouches-du-Rhône",
      "Latitude": 43.641,
      "Longitude": 5.071
    },
    {
      "Id": 17,
      "Nom_Gare": "Avignon TGV",
      "INSEE_REG": 93,
      "NOM_REG": "Provence-Alpes-Côte d'Azur",
      "INSEE_DEP": 13,
      "NOM_DEP": "Bouches-du-Rhône",
      "Latitude": 43.657,
      "Longitude": 5.095
    },
    {
      "Id": 18,
      "Nom_Gare": "Marseille-Saint-Charles",
      "INSEE_REG": 93,
      "NOM_REG": "Provence-Alpes-Côte d'Azur",
      "INSEE_DEP": 13,
      "NOM_DEP": "Bouches-du-Rhône",
      "Latitude": 43.255,
      "Longitude": 5.432
    },
    {
      "Id": 19,
      "Nom_Gare": "Miramas",
      "INSEE_REG": 93,
      "NOM_REG": "Provence-Alpes-Côte d'Azur",
      "INSEE_DEP": 13,
      "NOM_DEP": "Bouches-du-Rhône",
      "Latitude": 43.643,
      "Longitude": 5.021
    },
    {
      "Id": 20,
      "Nom_Gare": "Angoulême",
      "INSEE_REG": 75,
      "NOM_REG": "Nouvelle-Aquitaine",
      "INSEE_DEP": 16,
      "NOM_DEP": "Charente",
      "Latitude": 45.655,
      "Longitude": 0.151
    },
    {
      "Id": 21,
      "Nom_Gare": "Champagne-Ardenne TGV",
      "INSEE_REG": 75,
      "NOM_REG": "Nouvelle-Aquitaine",
      "INSEE_DEP": 16,
      "NOM_DEP": "Charente",
      "Latitude": 45.62,
      "Longitude": -0.222
    },
    {
      "Id": 22,
      "Nom_Gare": "La Rochelle-Ville",
      "INSEE_REG": 75,
      "NOM_REG": "Nouvelle-Aquitaine",
      "INSEE_DEP": 17,
      "NOM_DEP": "Charente-Maritime",
      "Latitude": 46.158,
      "Longitude": -1.154
    },
    {
      "Id": 23,
      "Nom_Gare": "Rouen-Rive-Droite",
      "INSEE_REG": 75,
      "NOM_REG": "Nouvelle-Aquitaine",
      "INSEE_DEP": 17,
      "NOM_DEP": "Charente-Maritime",
      "Latitude": 46.318,
      "Longitude": -0.973
    },
    {
      "Id": 24,
      "Nom_Gare": "Surgères",
      "INSEE_REG": 75,
      "NOM_REG": "Nouvelle-Aquitaine",
      "INSEE_DEP": 17,
      "NOM_DEP": "Charente-Maritime",
      "Latitude": 46.114,
      "Longitude": -0.741
    },
    {
      "Id": 25,
      "Nom_Gare": "Beaune",
      "INSEE_REG": 27,
      "NOM_REG": "Bourgogne-Franche-Comté",
      "INSEE_DEP": 21,
      "NOM_DEP": "Côte-d'Or",
      "Latitude": 47.104,
      "Longitude": 4.67
    },
    {
      "Id": 26,
      "Nom_Gare": "Montbard",
      "INSEE_REG": 27,
      "NOM_REG": "Bourgogne-Franche-Comté",
      "INSEE_DEP": 21,
      "NOM_DEP": "Côte-d'Or",
      "Latitude": 47.837,
      "Longitude": 4.364
    },
    {
      "Id": 27,
      "Nom_Gare": "Guingamp",
      "INSEE_REG": 53,
      "NOM_REG": "Bretagne",
      "INSEE_DEP": 22,
      "NOM_DEP": "Côtes-d'Armor",
      "Latitude": 48.563,
      "Longitude": -3.155
    },
    {
      "Id": 28,
      "Nom_Gare": "Lamballe",
      "INSEE_REG": 53,
      "NOM_REG": "Bretagne",
      "INSEE_DEP": 22,
      "NOM_DEP": "Côtes-d'Armor",
      "Latitude": 48.439,
      "Longitude": -2.538
    },
    {
      "Id": 29,
      "Nom_Gare": "Lannion",
      "INSEE_REG": 53,
      "NOM_REG": "Bretagne",
      "INSEE_DEP": 22,
      "NOM_DEP": "Côtes-d'Armor",
      "Latitude": 48.744,
      "Longitude": -3.472
    },
    {
      "Id": 30,
      "Nom_Gare": "Mâcon-Ville",
      "INSEE_REG": 53,
      "NOM_REG": "Bretagne",
      "INSEE_DEP": 22,
      "NOM_DEP": "Côtes-d'Armor",
      "Latitude": 48.581,
      "Longitude": -2.197
    },
    {
      "Id": 31,
      "Nom_Gare": "Saint-Brieuc",
      "INSEE_REG": 53,
      "NOM_REG": "Bretagne",
      "INSEE_DEP": 22,
      "NOM_DEP": "Côtes-d'Armor",
      "Latitude": 48.503,
      "Longitude": -2.763
    },
    {
      "Id": 32,
      "Nom_Gare": "Besançon-Viotte",
      "INSEE_REG": 27,
      "NOM_REG": "Bourgogne-Franche-Comté",
      "INSEE_DEP": 25,
      "NOM_DEP": "Doubs",
      "Latitude": 47.248,
      "Longitude": 6.026
    },
    {
      "Id": 33,
      "Nom_Gare": "Frasne",
      "INSEE_REG": 27,
      "NOM_REG": "Bourgogne-Franche-Comté",
      "INSEE_DEP": 25,
      "NOM_DEP": "Doubs",
      "Latitude": 46.856,
      "Longitude": 6.149
    },
    {
      "Id": 34,
      "Nom_Gare": "Montélimar",
      "INSEE_REG": 84,
      "NOM_REG": "Auvergne-Rhône-Alpes",
      "INSEE_DEP": 26,
      "NOM_DEP": "Drôme",
      "Latitude": 44.546,
      "Longitude": 4.744
    },
    {
      "Id": 35,
      "Nom_Gare": "Valence TGV",
      "INSEE_REG": 84,
      "NOM_REG": "Auvergne-Rhône-Alpes",
      "INSEE_DEP": 26,
      "NOM_DEP": "Drôme",
      "Latitude": 45.065,
      "Longitude": 4.891
    },
    {
      "Id": 36,
      "Nom_Gare": "Valence-Ville",
      "INSEE_REG": 84,
      "NOM_REG": "Auvergne-Rhône-Alpes",
      "INSEE_DEP": 26,
      "NOM_DEP": "Drôme",
      "Latitude": 44.933,
      "Longitude": 4.891
    },
    {
      "Id": 37,
      "Nom_Gare": "Brest",
      "INSEE_REG": 53,
      "NOM_REG": "Bretagne",
      "INSEE_DEP": 29,
      "NOM_DEP": "Finistère",
      "Latitude": 48.391,
      "Longitude": -4.502
    },
    {
      "Id": 38,
      "Nom_Gare": "Landerneau",
      "INSEE_REG": 53,
      "NOM_REG": "Bretagne",
      "INSEE_DEP": 29,
      "NOM_DEP": "Finistère",
      "Latitude": 48.45,
      "Longitude": -4.253
    },
    {
      "Id": 39,
      "Nom_Gare": "Quimper",
      "INSEE_REG": 53,
      "NOM_REG": "Bretagne",
      "INSEE_DEP": 29,
      "NOM_DEP": "Finistère",
      "Latitude": 48.014,
      "Longitude": -4.094
    },
    {
      "Id": 40,
      "Nom_Gare": "Quimperlé",
      "INSEE_REG": 53,
      "NOM_REG": "Bretagne",
      "INSEE_DEP": 29,
      "NOM_DEP": "Finistère",
      "Latitude": 47.884,
      "Longitude": -3.548
    },
    {
      "Id": 41,
      "Nom_Gare": "Rosporden",
      "INSEE_REG": 53,
      "NOM_REG": "Bretagne",
      "INSEE_DEP": 29,
      "NOM_DEP": "Finistère",
      "Latitude": 47.989,
      "Longitude": -3.791
    },
    {
      "Id": 42,
      "Nom_Gare": "Morlaix",
      "INSEE_REG": 53,
      "NOM_REG": "Bretagne",
      "INSEE_DEP": 29,
      "NOM_DEP": "Finistère",
      "Latitude": 48.579,
      "Longitude": -3.833
    },
    {
      "Id": 43,
      "Nom_Gare": "Nîmes",
      "INSEE_REG": 76,
      "NOM_REG": "Occitanie",
      "INSEE_DEP": 30,
      "NOM_DEP": "Gard",
      "Latitude": 43.832,
      "Longitude": 4.386
    },
    {
      "Id": 44,
      "Nom_Gare": "Nîmes-Pont-du-Gard",
      "INSEE_REG": 76,
      "NOM_REG": "Occitanie",
      "INSEE_DEP": 30,
      "NOM_DEP": "Gard",
      "Latitude": 43.851,
      "Longitude": 4.37
    },
    {
      "Id": 45,
      "Nom_Gare": "Meuse TGV",
      "INSEE_REG": 76,
      "NOM_REG": "Occitanie",
      "INSEE_DEP": 31,
      "NOM_DEP": "Haute-Garonne",
      "Latitude": 43.583,
      "Longitude": 1.484
    },
    {
      "Id": 46,
      "Nom_Gare": "Toulouse-Matabiau",
      "INSEE_REG": 76,
      "NOM_REG": "Occitanie",
      "INSEE_DEP": 31,
      "NOM_DEP": "Haute-Garonne",
      "Latitude": 43.61,
      "Longitude": 1.447
    },
    {
      "Id": 47,
      "Nom_Gare": "Arcachon",
      "INSEE_REG": 75,
      "NOM_REG": "Nouvelle-Aquitaine",
      "INSEE_DEP": 33,
      "NOM_DEP": "Gironde",
      "Latitude": 44.662,
      "Longitude": -1.17
    },
    {
      "Id": 48,
      "Nom_Gare": "Bordeaux-Saint-Jean",
      "INSEE_REG": 75,
      "NOM_REG": "Nouvelle-Aquitaine",
      "INSEE_DEP": 33,
      "NOM_DEP": "Gironde",
      "Latitude": 44.838,
      "Longitude": -0.57
    },
    {
      "Id": 49,
      "Nom_Gare": "Facture-Biganos",
      "INSEE_REG": 75,
      "NOM_REG": "Nouvelle-Aquitaine",
      "INSEE_DEP": 33,
      "NOM_DEP": "Gironde",
      "Latitude": 44.65,
      "Longitude": -0.956
    },
    {
      "Id": 50,
      "Nom_Gare": "Libourne",
      "INSEE_REG": 75,
      "NOM_REG": "Nouvelle-Aquitaine",
      "INSEE_DEP": 33,
      "NOM_DEP": "Gironde",
      "Latitude": 44.896,
      "Longitude": -0.24
    },
    {
      "Id": 51,
      "Nom_Gare": "La Teste",
      "INSEE_REG": 75,
      "NOM_REG": "Nouvelle-Aquitaine",
      "INSEE_DEP": 33,
      "NOM_DEP": "Gironde",
      "Latitude": 44.633,
      "Longitude": -1.133
    },
    {
      "Id": 52,
      "Nom_Gare": "Agde",
      "INSEE_REG": 76,
      "NOM_REG": "Occitanie",
      "INSEE_DEP": 34,
      "NOM_DEP": "Hérault",
      "Latitude": 43.318,
      "Longitude": 3.483
    },
    {
      "Id": 53,
      "Nom_Gare": "Béziers",
      "INSEE_REG": 76,
      "NOM_REG": "Occitanie",
      "INSEE_DEP": 34,
      "NOM_DEP": "Hérault",
      "Latitude": 43.42,
      "Longitude": 3.236
    },
    {
      "Id": 54,
      "Nom_Gare": "Montpellier-Saint-Roch",
      "INSEE_REG": 76,
      "NOM_REG": "Occitanie",
      "INSEE_DEP": 34,
      "NOM_DEP": "Hérault",
      "Latitude": 43.603,
      "Longitude": 3.89
    },
    {
      "Id": 55,
      "Nom_Gare": "Montpellier-Sud-de-France",
      "INSEE_REG": 76,
      "NOM_REG": "Occitanie",
      "INSEE_DEP": 34,
      "NOM_DEP": "Hérault",
      "Latitude": 43.595,
      "Longitude": 3.924
    },
    {
      "Id": 56,
      "Nom_Gare": "Sète",
      "INSEE_REG": 76,
      "NOM_REG": "Occitanie",
      "INSEE_DEP": 34,
      "NOM_DEP": "Hérault",
      "Latitude": 43.409,
      "Longitude": 3.698
    },
    {
      "Id": 57,
      "Nom_Gare": "TGV Haute-Picardie",
      "INSEE_REG": 76,
      "NOM_REG": "Occitanie",
      "INSEE_DEP": 34,
      "NOM_DEP": "Hérault",
      "Latitude": 43.394,
      "Longitude": 3.68
    },
    {
      "Id": 58,
      "Nom_Gare": "Dol-de-Bretagne",
      "INSEE_REG": 53,
      "NOM_REG": "Bretagne",
      "INSEE_DEP": 35,
      "NOM_DEP": "Ille-et-Vilaine",
      "Latitude": 48.551,
      "Longitude": -1.738
    },
    {
      "Id": 59,
      "Nom_Gare": "Plouaret-Trégor",
      "INSEE_REG": 53,
      "NOM_REG": "Bretagne",
      "INSEE_DEP": 35,
      "NOM_DEP": "Ille-et-Vilaine",
      "Latitude": 48.035,
      "Longitude": -1.704
    },
    {
      "Id": 60,
      "Nom_Gare": "Redon",
      "INSEE_REG": 53,
      "NOM_REG": "Bretagne",
      "INSEE_DEP": 35,
      "NOM_DEP": "Ille-et-Vilaine",
      "Latitude": 47.652,
      "Longitude": -2.083
    },
    {
      "Id": 61,
      "Nom_Gare": "Rennes",
      "INSEE_REG": 53,
      "NOM_REG": "Bretagne",
      "INSEE_DEP": 35,
      "NOM_DEP": "Ille-et-Vilaine",
      "Latitude": 48.11,
      "Longitude": -1.684
    },
    {
      "Id": 62,
      "Nom_Gare": "Saint-Malo",
      "INSEE_REG": 53,
      "NOM_REG": "Bretagne",
      "INSEE_DEP": 35,
      "NOM_DEP": "Ille-et-Vilaine",
      "Latitude": 48.657,
      "Longitude": -1.974
    },
    {
      "Id": 63,
      "Nom_Gare": "Vitré",
      "INSEE_REG": 53,
      "NOM_REG": "Bretagne",
      "INSEE_DEP": 35,
      "NOM_DEP": "Ille-et-Vilaine",
      "Latitude": 48.131,
      "Longitude": -1.218
    },
    {
      "Id": 64,
      "Nom_Gare": "Lorraine TGV",
      "INSEE_REG": 24,
      "NOM_REG": "Centre-Val de Loire",
      "INSEE_DEP": 37,
      "NOM_DEP": "Indre-et-Loire",
      "Latitude": 47.381,
      "Longitude": 0.71
    },
    {
      "Id": 65,
      "Nom_Gare": "Saint-Pierre-des-Corps",
      "INSEE_REG": 24,
      "NOM_REG": "Centre-Val de Loire",
      "INSEE_DEP": 37,
      "NOM_DEP": "Indre-et-Loire",
      "Latitude": 47.386,
      "Longitude": 0.761
    },
    {
      "Id": 66,
      "Nom_Gare": "Tours",
      "INSEE_REG": 24,
      "NOM_REG": "Centre-Val de Loire",
      "INSEE_DEP": 37,
      "NOM_DEP": "Indre-et-Loire",
      "Latitude": 47.402,
      "Longitude": 0.696
    },
    {
      "Id": 67,
      "Nom_Gare": "Grenoble",
      "INSEE_REG": 84,
      "NOM_REG": "Auvergne-Rhône-Alpes",
      "INSEE_DEP": 38,
      "NOM_DEP": "Isère",
      "Latitude": 45.177,
      "Longitude": 5.741
    },
    {
      "Id": 68,
      "Nom_Gare": "Mouchard",
      "INSEE_REG": 27,
      "NOM_REG": "Bourgogne-Franche-Comté",
      "INSEE_DEP": 39,
      "NOM_DEP": "Jura",
      "Latitude": 46.978,
      "Longitude": 5.792
    },
    {
      "Id": 69,
      "Nom_Gare": "Dax",
      "INSEE_REG": 75,
      "NOM_REG": "Nouvelle-Aquitaine",
      "INSEE_DEP": 40,
      "NOM_DEP": "Landes",
      "Latitude": 43.709,
      "Longitude": -1.068
    },
    {
      "Id": 70,
      "Nom_Gare": "Vendôme - Villiers-sur-Loir",
      "INSEE_REG": 24,
      "NOM_REG": "Centre-Val de Loire",
      "INSEE_DEP": 41,
      "NOM_DEP": "Loir-et-Cher",
      "Latitude": 47.799,
      "Longitude": 1.036
    },
    {
      "Id": 71,
      "Nom_Gare": "Montauban-Ville-Bourbon",
      "INSEE_REG": 84,
      "NOM_REG": "Auvergne-Rhône-Alpes",
      "INSEE_DEP": 42,
      "NOM_DEP": "Loire",
      "Latitude": 45.429,
      "Longitude": 4.36
    },
    {
      "Id": 72,
      "Nom_Gare": "Saint-Étienne-Châteaucreux",
      "INSEE_REG": 84,
      "NOM_REG": "Auvergne-Rhône-Alpes",
      "INSEE_DEP": 42,
      "NOM_DEP": "Loire",
      "Latitude": 45.443,
      "Longitude": 4.4
    },
    {
      "Id": 73,
      "Nom_Gare": "Ancenis",
      "INSEE_REG": 52,
      "NOM_REG": "Pays de la Loire",
      "INSEE_DEP": 44,
      "NOM_DEP": "Loire-Atlantique",
      "Latitude": 47.366,
      "Longitude": -1.184
    },
    {
      "Id": 74,
      "Nom_Gare": "La Baule-Escoublac",
      "INSEE_REG": 52,
      "NOM_REG": "Pays de la Loire",
      "INSEE_DEP": 44,
      "NOM_DEP": "Loire-Atlantique",
      "Latitude": 47.285,
      "Longitude": -2.371
    },
    {
      "Id": 75,
      "Nom_Gare": "Le Croisic",
      "INSEE_REG": 52,
      "NOM_REG": "Pays de la Loire",
      "INSEE_DEP": 44,
      "NOM_DEP": "Loire-Atlantique",
      "Latitude": 47.287,
      "Longitude": -2.51
    },
    {
      "Id": 76,
      "Nom_Gare": "Nantes",
      "INSEE_REG": 52,
      "NOM_REG": "Pays de la Loire",
      "INSEE_DEP": 44,
      "NOM_DEP": "Loire-Atlantique",
      "Latitude": 47.259,
      "Longitude": -1.529
    },
    {
      "Id": 77,
      "Nom_Gare": "Pornichet",
      "INSEE_REG": 52,
      "NOM_REG": "Pays de la Loire",
      "INSEE_DEP": 44,
      "NOM_DEP": "Loire-Atlantique",
      "Latitude": 47.252,
      "Longitude": -2.314
    },
    {
      "Id": 78,
      "Nom_Gare": "Le Pouliguen",
      "INSEE_REG": 52,
      "NOM_REG": "Pays de la Loire",
      "INSEE_DEP": 44,
      "NOM_DEP": "Loire-Atlantique",
      "Latitude": 47.277,
      "Longitude": -2.439
    },
    {
      "Id": 79,
      "Nom_Gare": "Saint-Nazaire",
      "INSEE_REG": 52,
      "NOM_REG": "Pays de la Loire",
      "INSEE_DEP": 44,
      "NOM_DEP": "Loire-Atlantique",
      "Latitude": 47.299,
      "Longitude": -2.184
    },
    {
      "Id": 80,
      "Nom_Gare": "Agen",
      "INSEE_REG": 75,
      "NOM_REG": "Nouvelle-Aquitaine",
      "INSEE_DEP": 47,
      "NOM_DEP": "Lot-et-Garonne",
      "Latitude": 44.206,
      "Longitude": 0.618
    },
    {
      "Id": 81,
      "Nom_Gare": "Angers-Saint-Laud",
      "INSEE_REG": 52,
      "NOM_REG": "Pays de la Loire",
      "INSEE_DEP": 49,
      "NOM_DEP": "Maine-et-Loire",
      "Latitude": 47.473,
      "Longitude": -0.552
    },
    {
      "Id": 82,
      "Nom_Gare": "Saumur",
      "INSEE_REG": 52,
      "NOM_REG": "Pays de la Loire",
      "INSEE_DEP": 49,
      "NOM_DEP": "Maine-et-Loire",
      "Latitude": 47.263,
      "Longitude": -0.073
    },
    {
      "Id": 83,
      "Nom_Gare": "Châlons-en-Champagne",
      "INSEE_REG": 44,
      "NOM_REG": "Grand Est",
      "INSEE_DEP": 51,
      "NOM_DEP": "Marne",
      "Latitude": 48.956,
      "Longitude": 4.362
    },
    {
      "Id": 84,
      "Nom_Gare": "Reims",
      "INSEE_REG": 44,
      "NOM_REG": "Grand Est",
      "INSEE_DEP": 51,
      "NOM_DEP": "Marne",
      "Latitude": 49.245,
      "Longitude": 4.041
    },
    {
      "Id": 85,
      "Nom_Gare": "Vitry-le-François",
      "INSEE_REG": 44,
      "NOM_REG": "Grand Est",
      "INSEE_DEP": 51,
      "NOM_DEP": "Marne",
      "Latitude": 48.73,
      "Longitude": 4.597
    },
    {
      "Id": 86,
      "Nom_Gare": "Laval",
      "INSEE_REG": 52,
      "NOM_REG": "Pays de la Loire",
      "INSEE_DEP": 53,
      "NOM_DEP": "Mayenne",
      "Latitude": 48.077,
      "Longitude": -0.76
    },
    {
      "Id": 87,
      "Nom_Gare": "Lunéville",
      "INSEE_REG": 44,
      "NOM_REG": "Grand Est",
      "INSEE_DEP": 54,
      "NOM_DEP": "Meurthe-et-Moselle",
      "Latitude": 48.585,
      "Longitude": 6.483
    },
    {
      "Id": 88,
      "Nom_Gare": "Nancy-Ville",
      "INSEE_REG": 44,
      "NOM_REG": "Grand Est",
      "INSEE_DEP": 54,
      "NOM_DEP": "Meurthe-et-Moselle",
      "Latitude": 48.703,
      "Longitude": 6.224
    },
    {
      "Id": 89,
      "Nom_Gare": "Bar-le-Duc",
      "INSEE_REG": 44,
      "NOM_REG": "Grand Est",
      "INSEE_DEP": 55,
      "NOM_DEP": "Meuse",
      "Latitude": 48.756,
      "Longitude": 5.194
    },
    {
      "Id": 90,
      "Nom_Gare": "Auray",
      "INSEE_REG": 53,
      "NOM_REG": "Bretagne",
      "INSEE_DEP": 56,
      "NOM_DEP": "Morbihan",
      "Latitude": 47.663,
      "Longitude": -2.988
    },
    {
      "Id": 91,
      "Nom_Gare": "Lorient",
      "INSEE_REG": 53,
      "NOM_REG": "Bretagne",
      "INSEE_DEP": 56,
      "NOM_DEP": "Morbihan",
      "Latitude": 47.759,
      "Longitude": -3.384
    },
    {
      "Id": 92,
      "Nom_Gare": "Vannes",
      "INSEE_REG": 53,
      "NOM_REG": "Bretagne",
      "INSEE_DEP": 56,
      "NOM_DEP": "Morbihan",
      "Latitude": 47.636,
      "Longitude": -2.773
    },
    {
      "Id": 93,
      "Nom_Gare": "Forbach",
      "INSEE_REG": 44,
      "NOM_REG": "Grand Est",
      "INSEE_DEP": 57,
      "NOM_DEP": "Moselle",
      "Latitude": 49.18,
      "Longitude": 6.895
    },
    {
      "Id": 94,
      "Nom_Gare": "Metz-Ville",
      "INSEE_REG": 44,
      "NOM_REG": "Grand Est",
      "INSEE_DEP": 57,
      "NOM_DEP": "Moselle",
      "Latitude": 49.101,
      "Longitude": 6.155
    },
    {
      "Id": 95,
      "Nom_Gare": "Sarrebourg",
      "INSEE_REG": 44,
      "NOM_REG": "Grand Est",
      "INSEE_DEP": 57,
      "NOM_DEP": "Moselle",
      "Latitude": 48.735,
      "Longitude": 7.052
    },
    {
      "Id": 96,
      "Nom_Gare": "Thionville",
      "INSEE_REG": 44,
      "NOM_REG": "Grand Est",
      "INSEE_DEP": 57,
      "NOM_DEP": "Moselle",
      "Latitude": 49.362,
      "Longitude": 6.144
    },
    {
      "Id": 97,
      "Nom_Gare": "Croix - Wasquehal",
      "INSEE_REG": 32,
      "NOM_REG": "Hauts-de-France",
      "INSEE_DEP": 59,
      "NOM_DEP": "Nord",
      "Latitude": 50.678,
      "Longitude": 3.135
    },
    {
      "Id": 98,
      "Nom_Gare": "Douai",
      "INSEE_REG": 32,
      "NOM_REG": "Hauts-de-France",
      "INSEE_DEP": 59,
      "NOM_DEP": "Nord",
      "Latitude": 50.39,
      "Longitude": 3.09
    },
    {
      "Id": 99,
      "Nom_Gare": "Dunkerque",
      "INSEE_REG": 32,
      "NOM_REG": "Hauts-de-France",
      "INSEE_DEP": 59,
      "NOM_DEP": "Nord",
      "Latitude": 51.046,
      "Longitude": 2.389
    },
    {
      "Id": 100,
      "Nom_Gare": "Hazebrouck",
      "INSEE_REG": 32,
      "NOM_REG": "Hauts-de-France",
      "INSEE_DEP": 59,
      "NOM_DEP": "Nord",
      "Latitude": 50.738,
      "Longitude": 2.726
    },
    {
      "Id": 101,
      "Nom_Gare": "Lille-Europe",
      "INSEE_REG": 32,
      "NOM_REG": "Hauts-de-France",
      "INSEE_DEP": 59,
      "NOM_DEP": "Nord",
      "Latitude": 50.641,
      "Longitude": 3.074
    },
    {
      "Id": 102,
      "Nom_Gare": "Lille-Flandres",
      "INSEE_REG": 32,
      "NOM_REG": "Hauts-de-France",
      "INSEE_DEP": 59,
      "NOM_DEP": "Nord",
      "Latitude": 50.628,
      "Longitude": 3.056
    },
    {
      "Id": 103,
      "Nom_Gare": "Roubaix",
      "INSEE_REG": 32,
      "NOM_REG": "Hauts-de-France",
      "INSEE_DEP": 59,
      "NOM_DEP": "Nord",
      "Latitude": 50.701,
      "Longitude": 3.17
    },
    {
      "Id": 104,
      "Nom_Gare": "Tourcoing",
      "INSEE_REG": 32,
      "NOM_REG": "Hauts-de-France",
      "INSEE_DEP": 59,
      "NOM_DEP": "Nord",
      "Latitude": 50.718,
      "Longitude": 3.141
    },
    {
      "Id": 105,
      "Nom_Gare": "Valenciennes",
      "INSEE_REG": 32,
      "NOM_REG": "Hauts-de-France",
      "INSEE_DEP": 59,
      "NOM_DEP": "Nord",
      "Latitude": 50.342,
      "Longitude": 3.517
    },
    {
      "Id": 106,
      "Nom_Gare": "Boulogne-Ville",
      "INSEE_REG": 32,
      "NOM_REG": "Hauts-de-France",
      "INSEE_DEP": 60,
      "NOM_DEP": "Oise",
      "Latitude": 49.607,
      "Longitude": 2.707
    },
    {
      "Id": 107,
      "Nom_Gare": "Arras",
      "INSEE_REG": 32,
      "NOM_REG": "Hauts-de-France",
      "INSEE_DEP": 62,
      "NOM_DEP": "Pas-de-Calais",
      "Latitude": 50.29,
      "Longitude": 2.778
    },
    {
      "Id": 108,
      "Nom_Gare": "Béthune",
      "INSEE_REG": 32,
      "NOM_REG": "Hauts-de-France",
      "INSEE_DEP": 62,
      "NOM_DEP": "Pas-de-Calais",
      "Latitude": 50.517,
      "Longitude": 2.636
    },
    {
      "Id": 109,
      "Nom_Gare": "Calais - Fréthun",
      "INSEE_REG": 32,
      "NOM_REG": "Hauts-de-France",
      "INSEE_DEP": 62,
      "NOM_DEP": "Pas-de-Calais",
      "Latitude": 50.935,
      "Longitude": 1.85
    },
    {
      "Id": 110,
      "Nom_Gare": "Calais-Ville",
      "INSEE_REG": 32,
      "NOM_REG": "Hauts-de-France",
      "INSEE_DEP": 62,
      "NOM_DEP": "Pas-de-Calais",
      "Latitude": 50.43,
      "Longitude": 3.063
    },
    {
      "Id": 111,
      "Nom_Gare": "Étaples - Le Touquet",
      "INSEE_REG": 32,
      "NOM_REG": "Hauts-de-France",
      "INSEE_DEP": 62,
      "NOM_DEP": "Pas-de-Calais",
      "Latitude": 50.525,
      "Longitude": 1.589
    },
    {
      "Id": 112,
      "Nom_Gare": "Lens",
      "INSEE_REG": 32,
      "NOM_REG": "Hauts-de-France",
      "INSEE_DEP": 62,
      "NOM_DEP": "Pas-de-Calais",
      "Latitude": 50.419,
      "Longitude": 3.027
    },
    {
      "Id": 113,
      "Nom_Gare": "Rang-du-Fliers - Verton",
      "INSEE_REG": 32,
      "NOM_REG": "Hauts-de-France",
      "INSEE_DEP": 62,
      "NOM_DEP": "Pas-de-Calais",
      "Latitude": 50.414,
      "Longitude": 1.619
    },
    {
      "Id": 114,
      "Nom_Gare": "Bayonne",
      "INSEE_REG": 75,
      "NOM_REG": "Nouvelle-Aquitaine",
      "INSEE_DEP": 64,
      "NOM_DEP": "Pyrénées-Atlantiques",
      "Latitude": 43.503,
      "Longitude": -1.443
    },
    {
      "Id": 115,
      "Nom_Gare": "Biarritz",
      "INSEE_REG": 75,
      "NOM_REG": "Nouvelle-Aquitaine",
      "INSEE_DEP": 64,
      "NOM_DEP": "Pyrénées-Atlantiques",
      "Latitude": 43.472,
      "Longitude": -1.555
    },
    {
      "Id": 116,
      "Nom_Gare": "Hendaye",
      "INSEE_REG": 75,
      "NOM_REG": "Nouvelle-Aquitaine",
      "INSEE_DEP": 64,
      "NOM_DEP": "Pyrénées-Atlantiques",
      "Latitude": 43.355,
      "Longitude": -1.774
    },
    {
      "Id": 117,
      "Nom_Gare": "Orthez",
      "INSEE_REG": 75,
      "NOM_REG": "Nouvelle-Aquitaine",
      "INSEE_DEP": 64,
      "NOM_DEP": "Pyrénées-Atlantiques",
      "Latitude": 43.491,
      "Longitude": -0.768
    },
    {
      "Id": 118,
      "Nom_Gare": "Pau",
      "INSEE_REG": 75,
      "NOM_REG": "Nouvelle-Aquitaine",
      "INSEE_DEP": 64,
      "NOM_DEP": "Pyrénées-Atlantiques",
      "Latitude": 43.295,
      "Longitude": -0.35
    },
    {
      "Id": 119,
      "Nom_Gare": "Saint-Jean-de-Luz - Ciboure",
      "INSEE_REG": 75,
      "NOM_REG": "Nouvelle-Aquitaine",
      "INSEE_DEP": 64,
      "NOM_DEP": "Pyrénées-Atlantiques",
      "Latitude": 43.381,
      "Longitude": -1.676
    },
    {
      "Id": 120,
      "Nom_Gare": "Lourdes",
      "INSEE_REG": 76,
      "NOM_REG": "Occitanie",
      "INSEE_DEP": 65,
      "NOM_DEP": "Hautes-Pyrénées",
      "Latitude": 43.095,
      "Longitude": -0.049
    },
    {
      "Id": 121,
      "Nom_Gare": "Tarbes",
      "INSEE_REG": 76,
      "NOM_REG": "Occitanie",
      "INSEE_DEP": 65,
      "NOM_DEP": "Hautes-Pyrénées",
      "Latitude": 43.232,
      "Longitude": 0.071
    },
    {
      "Id": 122,
      "Nom_Gare": "Perpignan",
      "INSEE_REG": 76,
      "NOM_REG": "Occitanie",
      "INSEE_DEP": 66,
      "NOM_DEP": "Pyrénées-Orientales",
      "Latitude": 42.697,
      "Longitude": 2.888
    },
    {
      "Id": 123,
      "Nom_Gare": "Saverne",
      "INSEE_REG": 44,
      "NOM_REG": "Grand Est",
      "INSEE_DEP": 67,
      "NOM_DEP": "Bas-Rhin",
      "Latitude": 48.744,
      "Longitude": 7.359
    },
    {
      "Id": 124,
      "Nom_Gare": "Sélestat",
      "INSEE_REG": 44,
      "NOM_REG": "Grand Est",
      "INSEE_DEP": 67,
      "NOM_DEP": "Bas-Rhin",
      "Latitude": 48.265,
      "Longitude": 7.441
    },
    {
      "Id": 125,
      "Nom_Gare": "Strasbourg-Ville",
      "INSEE_REG": 44,
      "NOM_REG": "Grand Est",
      "INSEE_DEP": 67,
      "NOM_DEP": "Bas-Rhin",
      "Latitude": 48.561,
      "Longitude": 7.76
    },
    {
      "Id": 126,
      "Nom_Gare": "Colmar",
      "INSEE_REG": 44,
      "NOM_REG": "Grand Est",
      "INSEE_DEP": 68,
      "NOM_DEP": "Haut-Rhin",
      "Latitude": 48.077,
      "Longitude": 7.361
    },
    {
      "Id": 127,
      "Nom_Gare": "Mulhouse-Ville",
      "INSEE_REG": 44,
      "NOM_REG": "Grand Est",
      "INSEE_DEP": 68,
      "NOM_DEP": "Haut-Rhin",
      "Latitude": 47.746,
      "Longitude": 7.34
    },
    {
      "Id": 128,
      "Nom_Gare": "Besançon Franche-Comté TGV",
      "INSEE_REG": 84,
      "NOM_REG": "Auvergne-Rhône-Alpes",
      "INSEE_DEP": 69,
      "NOM_DEP": "Rhône",
      "Latitude": 45.985,
      "Longitude": 4.706
    },
    {
      "Id": 129,
      "Nom_Gare": "Lyon-Part-Dieu",
      "INSEE_REG": 84,
      "NOM_REG": "Auvergne-Rhône-Alpes",
      "INSEE_DEP": 69,
      "NOM_DEP": "Rhône",
      "Latitude": 45.759,
      "Longitude": 4.841
    },
    {
      "Id": 130,
      "Nom_Gare": "Lyon-Perrache",
      "INSEE_REG": 84,
      "NOM_REG": "Auvergne-Rhône-Alpes",
      "INSEE_DEP": 69,
      "NOM_DEP": "Rhône",
      "Latitude": 45.749,
      "Longitude": 4.828
    },
    {
      "Id": 131,
      "Nom_Gare": "Lyon-Saint-Exupéry TGV",
      "INSEE_REG": 84,
      "NOM_REG": "Auvergne-Rhône-Alpes",
      "INSEE_DEP": 69,
      "NOM_DEP": "Rhône",
      "Latitude": 45.758,
      "Longitude": 4.828
    },
    {
      "Id": 132,
      "Nom_Gare": "Marne-la-Vallée - Chessy",
      "INSEE_REG": 84,
      "NOM_REG": "Auvergne-Rhône-Alpes",
      "INSEE_DEP": 69,
      "NOM_DEP": "Rhône",
      "Latitude": 45.888,
      "Longitude": 4.621
    },
    {
      "Id": 133,
      "Nom_Gare": "Paris-Gare-de-Lyon",
      "INSEE_REG": 84,
      "NOM_REG": "Auvergne-Rhône-Alpes",
      "INSEE_DEP": 69,
      "NOM_DEP": "Rhône",
      "Latitude": 45.78,
      "Longitude": 4.804
    },
    {
      "Id": 134,
      "Nom_Gare": "Dole-Ville",
      "INSEE_REG": 27,
      "NOM_REG": "Bourgogne-Franche-Comté",
      "INSEE_DEP": 70,
      "NOM_DEP": "Haute-Saône",
      "Latitude": 47.439,
      "Longitude": 5.589
    },
    {
      "Id": 135,
      "Nom_Gare": "Chalon-sur-Saône",
      "INSEE_REG": 27,
      "NOM_REG": "Bourgogne-Franche-Comté",
      "INSEE_DEP": 71,
      "NOM_DEP": "Saône-et-Loire",
      "Latitude": 46.789,
      "Longitude": 4.841
    },
    {
      "Id": 136,
      "Nom_Gare": "Le Creusot - Montceau - Montchanin",
      "INSEE_REG": 27,
      "NOM_REG": "Bourgogne-Franche-Comté",
      "INSEE_DEP": 71,
      "NOM_DEP": "Saône-et-Loire",
      "Latitude": 46.669,
      "Longitude": 4.377
    },
    {
      "Id": 137,
      "Nom_Gare": "Mâcon-Loché TGV",
      "INSEE_REG": 27,
      "NOM_REG": "Bourgogne-Franche-Comté",
      "INSEE_DEP": 71,
      "NOM_DEP": "Saône-et-Loire",
      "Latitude": 46.277,
      "Longitude": 4.784
    },
    {
      "Id": 138,
      "Nom_Gare": "Le Mans",
      "INSEE_REG": 52,
      "NOM_REG": "Pays de la Loire",
      "INSEE_DEP": 72,
      "NOM_DEP": "Sarthe",
      "Latitude": 47.999,
      "Longitude": 0.192
    },
    {
      "Id": 139,
      "Nom_Gare": "Sablé-sur-Sarthe",
      "INSEE_REG": 52,
      "NOM_REG": "Pays de la Loire",
      "INSEE_DEP": 72,
      "NOM_DEP": "Sarthe",
      "Latitude": 47.837,
      "Longitude": -0.329
    },
    {
      "Id": 140,
      "Nom_Gare": "Aime-La Plagne",
      "INSEE_REG": 84,
      "NOM_REG": "Auvergne-Rhône-Alpes",
      "INSEE_DEP": 73,
      "NOM_DEP": "Savoie",
      "Latitude": 45.573,
      "Longitude": 6.606
    },
    {
      "Id": 141,
      "Nom_Gare": "Aix-les-Bains-Le Revard",
      "INSEE_REG": 84,
      "NOM_REG": "Auvergne-Rhône-Alpes",
      "INSEE_DEP": 73,
      "NOM_DEP": "Savoie",
      "Latitude": 45.69,
      "Longitude": 5.919
    },
    {
      "Id": 142,
      "Nom_Gare": "Albertville",
      "INSEE_REG": 84,
      "NOM_REG": "Auvergne-Rhône-Alpes",
      "INSEE_DEP": 73,
      "NOM_DEP": "Savoie",
      "Latitude": 45.659,
      "Longitude": 6.384
    },
    {
      "Id": 143,
      "Nom_Gare": "Bourg-Saint-Maurice",
      "INSEE_REG": 84,
      "NOM_REG": "Auvergne-Rhône-Alpes",
      "INSEE_DEP": 73,
      "NOM_DEP": "Savoie",
      "Latitude": 45.573,
      "Longitude": 6.828
    },
    {
      "Id": 144,
      "Nom_Gare": "Chambéry - Challes-les-Eaux",
      "INSEE_REG": 84,
      "NOM_REG": "Auvergne-Rhône-Alpes",
      "INSEE_DEP": 73,
      "NOM_DEP": "Savoie",
      "Latitude": 45.559,
      "Longitude": 5.975
    },
    {
      "Id": 145,
      "Nom_Gare": "Landry",
      "INSEE_REG": 84,
      "NOM_REG": "Auvergne-Rhône-Alpes",
      "INSEE_DEP": 73,
      "NOM_DEP": "Savoie",
      "Latitude": 45.576,
      "Longitude": 6.736
    },
    {
      "Id": 146,
      "Nom_Gare": "Modane",
      "INSEE_REG": 84,
      "NOM_REG": "Auvergne-Rhône-Alpes",
      "INSEE_DEP": 73,
      "NOM_DEP": "Savoie",
      "Latitude": 45.201,
      "Longitude": 6.671
    },
    {
      "Id": 147,
      "Nom_Gare": "Moûtiers - Salins - Brides-les-Bains",
      "INSEE_REG": 84,
      "NOM_REG": "Auvergne-Rhône-Alpes",
      "INSEE_DEP": 73,
      "NOM_DEP": "Savoie",
      "Latitude": 45.452,
      "Longitude": 6.567
    },
    {
      "Id": 148,
      "Nom_Gare": "Saint-Avre - La Chambre",
      "INSEE_REG": 84,
      "NOM_REG": "Auvergne-Rhône-Alpes",
      "INSEE_DEP": 73,
      "NOM_DEP": "Savoie",
      "Latitude": 45.356,
      "Longitude": 6.304
    },
    {
      "Id": 149,
      "Nom_Gare": "Saint-Jean-de-Maurienne - Vallée de l'Arvan",
      "INSEE_REG": 84,
      "NOM_REG": "Auvergne-Rhône-Alpes",
      "INSEE_DEP": 73,
      "NOM_DEP": "Savoie",
      "Latitude": 45.272,
      "Longitude": 6.352
    },
    {
      "Id": 150,
      "Nom_Gare": "Annecy",
      "INSEE_REG": 84,
      "NOM_REG": "Auvergne-Rhône-Alpes",
      "INSEE_DEP": 74,
      "NOM_DEP": "Haute-Savoie",
      "Latitude": 45.898,
      "Longitude": 6.119
    },
    {
      "Id": 151,
      "Nom_Gare": "Annemasse",
      "INSEE_REG": 84,
      "NOM_REG": "Auvergne-Rhône-Alpes",
      "INSEE_DEP": 74,
      "NOM_DEP": "Haute-Savoie",
      "Latitude": 46.185,
      "Longitude": 6.242
    },
    {
      "Id": 152,
      "Nom_Gare": "Évian-les-Bains",
      "INSEE_REG": 84,
      "NOM_REG": "Auvergne-Rhône-Alpes",
      "INSEE_DEP": 74,
      "NOM_DEP": "Haute-Savoie",
      "Latitude": 46.398,
      "Longitude": 6.602
    },
    {
      "Id": 153,
      "Nom_Gare": "Saint-Gervais-les-Bains-Le Fayet",
      "INSEE_REG": 84,
      "NOM_REG": "Auvergne-Rhône-Alpes",
      "INSEE_DEP": 74,
      "NOM_DEP": "Haute-Savoie",
      "Latitude": 45.868,
      "Longitude": 6.682
    },
    {
      "Id": 154,
      "Nom_Gare": "Sallanches - Combloux - Megève",
      "INSEE_REG": 84,
      "NOM_REG": "Auvergne-Rhône-Alpes",
      "INSEE_DEP": 74,
      "NOM_DEP": "Haute-Savoie",
      "Latitude": 45.901,
      "Longitude": 6.643
    },
    {
      "Id": 155,
      "Nom_Gare": "Thonon-les-Bains",
      "INSEE_REG": 84,
      "NOM_REG": "Auvergne-Rhône-Alpes",
      "INSEE_DEP": 74,
      "NOM_DEP": "Haute-Savoie",
      "Latitude": 46.374,
      "Longitude": 6.485
    },
    {
      "Id": 156,
      "Nom_Gare": "Paris-Est",
      "INSEE_REG": 11,
      "NOM_REG": "Île-de-France",
      "INSEE_DEP": 75,
      "NOM_DEP": "Paris",
      "Latitude": 48.871,
      "Longitude": 2.395
    },
    {
      "Id": 157,
      "Nom_Gare": "Paris-Montparnasse",
      "INSEE_REG": 11,
      "NOM_REG": "Île-de-France",
      "INSEE_DEP": 75,
      "NOM_DEP": "Paris",
      "Latitude": 48.838,
      "Longitude": 2.317
    },
    {
      "Id": 158,
      "Nom_Gare": "Paris-Nord",
      "INSEE_REG": 11,
      "NOM_REG": "Île-de-France",
      "INSEE_DEP": 75,
      "NOM_DEP": "Paris",
      "Latitude": 48.881,
      "Longitude": 2.356
    },
    {
      "Id": 159,
      "Nom_Gare": "Le Havre",
      "INSEE_REG": 28,
      "NOM_REG": "Normandie",
      "INSEE_DEP": 76,
      "NOM_DEP": "Seine-Maritime",
      "Latitude": 49.505,
      "Longitude": 0.174
    },
    {
      "Id": 160,
      "Nom_Gare": "Aéroport Charles-de-Gaulle TGV",
      "INSEE_REG": 11,
      "NOM_REG": "Île-de-France",
      "INSEE_DEP": 77,
      "NOM_DEP": "Seine-et-Marne",
      "Latitude": 49.006,
      "Longitude": 2.571
    },
    {
      "Id": 161,
      "Nom_Gare": "Mantes-la-Jolie",
      "INSEE_REG": 11,
      "NOM_REG": "Île-de-France",
      "INSEE_DEP": 78,
      "NOM_DEP": "Yvelines",
      "Latitude": 48.994,
      "Longitude": 1.721
    },
    {
      "Id": 162,
      "Nom_Gare": "Versailles-Chantiers",
      "INSEE_REG": 11,
      "NOM_REG": "Île-de-France",
      "INSEE_DEP": 78,
      "NOM_DEP": "Yvelines",
      "Latitude": 48.797,
      "Longitude": 2.136
    },
    {
      "Id": 163,
      "Nom_Gare": "Niort",
      "INSEE_REG": 75,
      "NOM_REG": "Nouvelle-Aquitaine",
      "INSEE_DEP": 79,
      "NOM_DEP": "Deux-Sèvres",
      "Latitude": 46.319,
      "Longitude": -0.458
    },
    {
      "Id": 164,
      "Nom_Gare": "Saint-Maixent (Deux-Sèvres)",
      "INSEE_REG": 75,
      "NOM_REG": "Nouvelle-Aquitaine",
      "INSEE_DEP": 79,
      "NOM_DEP": "Deux-Sèvres",
      "Latitude": 46.409,
      "Longitude": -0.205
    },
    {
      "Id": 165,
      "Nom_Gare": "Amiens",
      "INSEE_REG": 32,
      "NOM_REG": "Hauts-de-France",
      "INSEE_DEP": 80,
      "NOM_DEP": "Somme",
      "Latitude": 49.9,
      "Longitude": 2.289
    },
    {
      "Id": 166,
      "Nom_Gare": "Les Arcs - Draguignan",
      "INSEE_REG": 93,
      "NOM_REG": "Provence-Alpes-Côte d'Azur",
      "INSEE_DEP": 83,
      "NOM_DEP": "Var",
      "Latitude": 43.504,
      "Longitude": 6.483
    },
    {
      "Id": 167,
      "Nom_Gare": "Hyères",
      "INSEE_REG": 93,
      "NOM_REG": "Provence-Alpes-Côte d'Azur",
      "INSEE_DEP": 83,
      "NOM_DEP": "Var",
      "Latitude": 43.09,
      "Longitude": 6.123
    },
    {
      "Id": 168,
      "Nom_Gare": "Saint-Raphaël-Valescure",
      "INSEE_REG": 93,
      "NOM_REG": "Provence-Alpes-Côte d'Azur",
      "INSEE_DEP": 83,
      "NOM_DEP": "Var",
      "Latitude": 43.441,
      "Longitude": 6.776
    },
    {
      "Id": 169,
      "Nom_Gare": "Toulon",
      "INSEE_REG": 93,
      "NOM_REG": "Provence-Alpes-Côte d'Azur",
      "INSEE_DEP": 83,
      "NOM_DEP": "Var",
      "Latitude": 43.133,
      "Longitude": 5.964
    },
    {
      "Id": 170,
      "Nom_Gare": "Avignon-Centre",
      "INSEE_REG": 93,
      "NOM_REG": "Provence-Alpes-Côte d'Azur",
      "INSEE_DEP": 84,
      "NOM_DEP": "Vaucluse",
      "Latitude": 44.046,
      "Longitude": 5.031
    },
    {
      "Id": 171,
      "Nom_Gare": "Orange",
      "INSEE_REG": 93,
      "NOM_REG": "Provence-Alpes-Côte d'Azur",
      "INSEE_DEP": 84,
      "NOM_DEP": "Vaucluse",
      "Latitude": 44.14,
      "Longitude": 4.812
    },
    {
      "Id": 172,
      "Nom_Gare": "La Roche-sur-Yon",
      "INSEE_REG": 52,
      "NOM_REG": "Pays de la Loire",
      "INSEE_DEP": 85,
      "NOM_DEP": "Vendée",
      "Latitude": 46.67,
      "Longitude": -1.432
    },
    {
      "Id": 173,
      "Nom_Gare": "Les Sables-d'Olonne",
      "INSEE_REG": 52,
      "NOM_REG": "Pays de la Loire",
      "INSEE_DEP": 85,
      "NOM_DEP": "Vendée",
      "Latitude": 46.479,
      "Longitude": -1.758
    },
    {
      "Id": 174,
      "Nom_Gare": "Châtellerault",
      "INSEE_REG": 75,
      "NOM_REG": "Nouvelle-Aquitaine",
      "INSEE_DEP": 86,
      "NOM_DEP": "Vienne",
      "Latitude": 46.796,
      "Longitude": 0.525
    },
    {
      "Id": 175,
      "Nom_Gare": "Futuroscope",
      "INSEE_REG": 75,
      "NOM_REG": "Nouvelle-Aquitaine",
      "INSEE_DEP": 86,
      "NOM_DEP": "Vienne",
      "Latitude": 46.659,
      "Longitude": 0.362
    },
    {
      "Id": 176,
      "Nom_Gare": "Poitiers",
      "INSEE_REG": 75,
      "NOM_REG": "Nouvelle-Aquitaine",
      "INSEE_DEP": 86,
      "NOM_DEP": "Vienne",
      "Latitude": 46.579,
      "Longitude": 0.335
    },
    {
      "Id": 177,
      "Nom_Gare": "Épinal",
      "INSEE_REG": 44,
      "NOM_REG": "Grand Est",
      "INSEE_DEP": 88,
      "NOM_DEP": "Vosges",
      "Latitude": 48.175,
      "Longitude": 6.45
    },
    {
      "Id": 178,
      "Nom_Gare": "Remiremont",
      "INSEE_REG": 44,
      "NOM_REG": "Grand Est",
      "INSEE_DEP": 88,
      "NOM_DEP": "Vosges",
      "Latitude": 48.006,
      "Longitude": 6.604
    },
    {
      "Id": 179,
      "Nom_Gare": "Saint-Dié-des-Vosges",
      "INSEE_REG": 44,
      "NOM_REG": "Grand Est",
      "INSEE_DEP": 88,
      "NOM_DEP": "Vosges",
      "Latitude": 48.293,
      "Longitude": 6.962
    },
    {
      "Id": 180,
      "Nom_Gare": "Saint-Michel - Valloire",
      "INSEE_REG": 44,
      "NOM_REG": "Grand Est",
      "INSEE_DEP": 88,
      "NOM_DEP": "Vosges",
      "Latitude": 48.157,
      "Longitude": 6.134
    },
    {
      "Id": 181,
      "Nom_Gare": "Belfort - Montbéliard TGV",
      "INSEE_REG": 27,
      "NOM_REG": "Bourgogne-Franche-Comté",
      "INSEE_DEP": 90,
      "NOM_DEP": "Territoire de Belfort",
      "Latitude": 47.637,
      "Longitude": 6.858
    },
    {
      "Id": 182,
      "Nom_Gare": "Massy - Palaiseau",
      "INSEE_REG": 11,
      "NOM_REG": "Île-de-France",
      "INSEE_DEP": 91,
      "NOM_DEP": "Essonne",
      "Latitude": 48.731,
      "Longitude": 2.243
    },
    {
      "Id": 183,
      "Nom_Gare": "Massy TGV",
      "INSEE_REG": 11,
      "NOM_REG": "Île-de-France",
      "INSEE_DEP": 91,
      "NOM_DEP": "Essonne",
      "Latitude": 48.736,
      "Longitude": 2.291
    }
  ]
}